[
	{
		"id": 1,
		"name": "Kmart",
		"address": "3825 NW 7th St, Miami, FL 33126, USA",
		"lat": 25.7799778,
		"lng": -80.25879049999998
	},
	{
		"id": 2,
		"name": "West elm",
		"address": "3201 N Miami Ave #108, Miami, FL 33127, USA",
		"lat": 25.8079238,
		"lng": -80.19452079999996
	},
	{
		"id": 3,
		"name": "Disney Store",
		"address": "401 Biscayne Blvd, Miami, FL 33132, USA",
		"lat": 25.7792199,
		"lng": -80.18654750000002
	},
	{
		"id": 4,
		"name": "Touch Dolls Boutique",
		"address": "7231 Biscayne Blvd, Miami, FL 33138, USA",
		"lat": 25.841529,
		"lng": -80.18419500000005
	},
	{
		"id": 5,
		"name": "Nike Miami",
		"address": "1035 Lincoln Rd, Miami Beach, FL 33139, USA",
		"lat": 25.7908426,
		"lng": -80.1394565
	},
	{
		"id": 6,
		"name": "Party City",
		"address": "3727 NW 7th St, Miami, FL 33126, USA",
		"lat": 25.7807885,
		"lng": -80.25875529999996
	},
	{
		"id": 7,
		"name": "Big Box Furniture Company",
		"address": "3501 NW 33rd St, Miami, FL 33142, USA",
		"lat": 25.8062882,
		"lng": -80.25295019999999
	},
	{
		"id": 8,
		"name": "Whole Foods Market",
		"address": "299 SE 3rd Ave, Miami, FL 33131, USA",
		"lat": 25.7719727,
		"lng": -80.18907179999997
	},
	{
		"id": 9,
		"name": "West Marine",
		"address": "3635 S Dixie Hwy, Miami, FL 33133, USA",
		"lat": 25.7340483,
		"lng": -80.25282340000001
	},
	{
		"id": 10,
		"name": "Louis Vuitton Miami Design Distric",
		"address": "140 NE 39th St, Miami, FL 33137, USA",
		"lat": 25.8126055,
		"lng": -80.19243719999997
	},
	{
		"id": 11,
		"name": "GameStop",
		"address": "271 SW 8th St, Miami, FL 33130, USA",
		"lat": 25.7666181,
		"lng": -80.19876729999999
	},
	{
		"id": 12,
		"name": "Bayside Time",
		"address": "401 Biscayne Blvd, Miami, FL 33132, USA",
		"lat": 25.7792199,
		"lng": -80.18654750000002
	},
	{
		"id": 13,
		"name": "Westland Mall",
		"address": "1675 W 49th St, Hialeah, FL 33012, USA",
		"lat": 25.8680037,
		"lng": -80.31893389999999
	},
	{
		"id": 14,
		"name": "SKECHERS Factory Outlet",
		"address": "3301 W Okeechobee Rd, Hialeah, FL 33012, USA",
		"lat": 25.8527688,
		"lng": -80.31882989999997
	},
	{
		"id": 15,
		"name": "Best Buy",
		"address": "4001 W 20th Ave, Hialeah, FL 33012, USA",
		"lat": 25.8584073,
		"lng": -80.32163209999999
	},
	{
		"id": 16,
		"name": "Walmart Supercenter",
		"address": "9300 NW 77th Ave, Miami Lakes, FL 33016, USA",
		"lat": 25.8600631,
		"lng": -80.32370730000002
	},
	{
		"id": 17,
		"name": "Dollar Tree",
		"address": "596 W 49th St, Hialeah, FL 33012, USA",
		"lat": 25.8654332,
		"lng": -80.29464689999998
	},
	{
		"id": 18,
		"name": "Frames USA",
		"address": "6822 SW 40th St, Miami, FL 33155, USA",
		"lat": 25.7327199,
		"lng": -80.30490050000003
	},
	{
		"id": 19,
		"name": "USA Jewelry",
		"address": "7381 SW 8th St, Miami, FL 33144, USA",
		"lat": 25.7629639,
		"lng": -80.31523920000001
	},
	{
		"id": 20,
		"name": "Motoport USA",
		"address": "3312, 1200 NW 57th Ave, Miami, FL 33126, USA",
		"lat": 25.7830014,
		"lng": -80.28883730000001
	}
]